RowNames,Number,Name,Year,Type,FirstLat,FirstLon,MaxLat,MaxLon,LastLat,LastLon,MaxInt
1,430.00,NOTNAMED,1944.00,1.00,30.20,-76.10,32.10,-74.80,35.10,-69.20,80.00
2,432.00,NOTNAMED,1944.00,0.00,25.60,-74.90,31.00,-78.10,32.60,-78.20,80.00
3,433.00,NOTNAMED,1944.00,0.00,14.20,-65.20,16.60,-72.20,20.60,-88.50,105.00
4,436.00,NOTNAMED,1944.00,0.00,20.80,-58.00,26.30,-72.30,42.10,-71.50,120.00
5,437.00,NOTNAMED,1944.00,0.00,20.00,-84.20,20.60,-84.90,19.10,-93.90,70.00
6,438.00,NOTNAMED,1944.00,1.00,29.20,-55.80,38.00,-53.20,50.00,-46.50,85.00
7,440.00,NOTNAMED,1944.00,0.00,16.10,-80.80,21.90,-82.90,28.40,-82.10,105.00
8,441.00,NOTNAMED,1945.00,1.00,27.60,-85.60,27.60,-85.60,31.70,-79.10,100.00
9,445.00,NOTNAMED,1945.00,0.00,21.60,-95.20,28.60,-96.10,29.50,-96.00,120.00
10,449.00,NOTNAMED,1945.00,0.00,19.00,-56.60,24.90,-79.60,28.90,-81.80,120.00
11,450.00,NOTNAMED,1945.00,0.00,16.20,-82.60,16.50,-85.60,16.40,-88.30,85.00
12,451.00,NOTNAMED,1945.00,0.00,19.60,-80.20,21.60,-79.30,29.90,-68.00,85.00
13,453.00,NOTNAMED,1946.00,1.00,36.50,-72.30,36.70,-70.80,39.00,-63.00,70.00
14,455.00,NOTNAMED,1946.00,0.00,26.40,-77.90,28.40,-75.00,40.70,-66.00,85.00
15,456.00,NOTNAMED,1946.00,0.00,19.60,-85.60,25.40,-83.20,27.00,-82.80,115.00
16,459.00,NOTNAMED,1947.00,0.00,21.00,-92.50,22.00,-96.40,22.00,-97.20,95.00
17,460.00,NOTNAMED,1947.00,0.00,26.50,-90.60,26.90,-91.20,29.20,-94.80,70.00
18,461.00,NOTNAMED,1947.00,0.00,14.10,-24.00,26.50,-75.40,30.40,-91.00,140.00
19,465.00,NOTNAMED,1947.00,0.00,24.10,-82.30,25.80,-80.60,31.80,-82.30,75.00
20,466.00,NOTNAMED,1947.00,0.00,19.70,-66.60,31.40,-66.90,37.50,-59.00,105.00
21,469.00,NOTNAMED,1948.00,0.00,20.90,-61.00,27.60,-70.40,37.00,-68.70,105.00
22,471.00,NOTNAMED,1948.00,0.00,25.80,-92.60,26.60,-91.90,28.80,-90.50,70.00
23,472.00,NOTNAMED,1948.00,0.00,14.30,-23.00,28.70,-64.60,46.90,-48.80,115.00
24,473.00,NOTNAMED,1948.00,0.00,18.50,-80.80,24.30,-81.70,37.10,-66.90,105.00
25,474.00,NOTNAMED,1948.00,0.00,19.40,-85.10,23.30,-82.50,32.20,-51.30,115.00
26,475.00,NOTNAMED,1948.00,1.00,25.90,-68.80,26.30,-70.80,30.10,-74.40,70.00
27,476.00,NOTNAMED,1949.00,0.00,22.30,-64.70,30.90,-76.20,44.20,-49.30,95.00
28,477.00,NOTNAMED,1949.00,0.00,23.40,-73.00,26.10,-79.00,28.30,-82.20,130.00
29,479.00,NOTNAMED,1949.00,0.00,20.90,-66.60,31.70,-63.50,45.50,-55.10,110.00
30,483.00,NOTNAMED,1949.00,0.00,23.00,-94.90,21.90,-95.90,20.30,-95.80,85.00
31,484.00,NOTNAMED,1949.00,0.00,16.40,-65.30,16.90,-66.60,18.20,-69.90,70.00
32,485.00,NOTNAMED,1949.00,0.00,22.00,-94.30,29.10,-95.40,29.10,-95.40,115.00
33,486.00,NOTNAMED,1949.00,0.00,24.20,-71.90,32.40,-68.30,35.70,-65.50,90.00
34,489.00,ABLE,1950.00,0.00,21.00,-62.50,26.10,-73.80,41.80,-67.00,120.00
35,490.00,BAKER,1950.00,0.00,16.50,-57.40,16.70,-60.00,30.80,-87.80,105.00
36,491.00,CHARLIE,1950.00,0.00,22.00,-52.80,29.20,-58.00,38.40,-58.10,100.00
37,492.00,DOG,1950.00,0.00,15.70,-56.50,26.70,-68.40,40.50,-68.80,160.00
38,493.00,EASY,1950.00,0.00,21.00,-82.80,27.40,-83.20,28.20,-82.20,110.00
39,494.00,FOX,1950.00,0.00,18.90,-50.20,24.60,-59.40,41.90,-42.80,120.00
40,495.00,GEORGE,1950.00,1.00,30.30,-63.80,33.00,-68.00,44.60,-56.70,95.00
41,497.00,ITEM,1950.00,1.00,21.00,-93.20,19.90,-95.30,18.80,-95.90,95.00
42,498.00,JIG,1950.00,0.00,25.40,-55.50,34.20,-58.20,41.90,-44.50,105.00
43,499.00,KING,1950.00,0.00,18.20,-79.60,21.90,-78.60,28.60,-81.50,105.00
44,501.00,LOVE,1950.00,3.00,27.50,-90.80,26.10,-92.20,27.10,-85.20,80.00
45,502.00,ABLE,1951.00,3.00,28.70,-78.60,34.40,-74.70,36.50,-69.00,100.00
46,504.00,CHARLIE,1951.00,0.00,15.40,-62.50,20.20,-87.20,22.20,-98.00,115.00
47,505.00,DOG,1951.00,0.00,14.10,-58.80,14.20,-62.80,14.90,-73.10,100.00
48,506.00,EASY,1951.00,0.00,16.60,-42.60,24.00,-66.00,39.60,-43.80,140.00
49,507.00,FOX,1951.00,0.00,15.20,-36.20,21.70,-50.70,49.60,-29.90,100.00
50,509.00,HOW,1951.00,1.00,29.00,-78.80,33.90,-75.20,41.20,-55.30,95.00
51,510.00,ITEM,1951.00,1.00,18.50,-82.10,19.10,-81.80,20.40,-81.20,70.00
52,511.00,JIG,1951.00,3.00,29.40,-75.30,30.60,-74.80,31.90,-73.60,70.00
53,513.00,ABLE,1952.00,0.00,21.90,-64.70,31.80,-80.50,33.10,-80.80,90.00
54,514.00,BAKER,1952.00,0.00,18.20,-59.30,26.80,-68.40,45.60,-51.70,105.00
55,515.00,CHARLIE,1952.00,0.00,24.50,-73.80,28.20,-74.80,40.50,-51.00,105.00
56,516.00,DOG,1952.00,0.00,16.60,-54.00,17.00,-54.60,17.50,-55.00,75.00
57,517.00,EASY,1952.00,0.00,17.50,-51.00,18.70,-50.50,18.70,-50.20,95.00
58,518.00,FOX,1952.00,0.00,16.80,-82.20,21.80,-81.00,25.30,-74.00,130.00
59,520.00,BARBARA,1953.00,0.00,29.20,-75.90,33.60,-76.30,43.10,-64.30,95.00
60,522.00,CAROL,1953.00,0.00,14.20,-49.50,18.90,-58.70,43.30,-67.30,130.00
61,523.00,DOLLY,1953.00,0.00,20.70,-69.40,22.80,-70.30,30.40,-67.60,100.00
62,524.00,EDNA,1953.00,0.00,20.90,-67.00,24.80,-71.10,39.20,-56.10,110.00
63,526.00,FLORENCE,1953.00,0.00,20.90,-85.00,23.40,-87.00,30.40,-86.10,110.00
64,527.00,GAIL,1953.00,0.00,14.80,-42.80,14.60,-44.20,14.30,-45.30,70.00
65,533.00,ALICE,1954.00,1.00,24.00,-95.70,24.40,-96.50,24.90,-97.20,70.00
66,535.00,CAROL,1954.00,0.00,28.90,-76.20,29.80,-76.60,43.10,-71.80,85.00
67,536.00,DOLLY,1954.00,0.00,24.80,-69.50,29.00,-70.20,44.30,-56.40,85.00
68,537.00,EDNA,1954.00,0.00,22.20,-70.80,26.60,-75.60,44.90,-67.90,105.00
69,538.00,FLORENCE,1954.00,0.00,20.80,-95.90,20.80,-95.90,20.50,-96.30,65.00
70,540.00,UNNAMED,1954.00,1.00,31.00,-53.00,35.20,-49.10,47.40,-31.70,85.00
71,541.00,HAZEL,1954.00,0.00,12.80,-61.10,30.20,-77.80,41.00,-77.40,120.00
72,543.00,ALICE2,1954.00,3.00,20.60,-55.20,17.60,-63.20,15.50,-65.20,70.00
73,545.00,CONNIE,1955.00,0.00,18.00,-54.90,19.60,-61.90,35.60,-76.00,125.00
74,546.00,DIANE,1955.00,0.00,24.00,-61.10,25.30,-60.80,33.50,-77.50,105.00
75,547.00,EDITH,1955.00,0.00,21.30,-56.30,27.70,-64.10,40.60,-52.60,85.00
76,549.00,FLORA,1955.00,0.00,21.00,-40.20,32.40,-55.40,46.60,-40.10,90.00
77,550.00,GLADYS,1955.00,0.00,23.60,-96.70,23.60,-96.70,23.40,-97.30,80.00
78,551.00,HILDA,1955.00,0.00,19.80,-68.00,21.80,-95.00,22.20,-97.00,110.00
79,552.00,IONE,1955.00,0.00,19.30,-62.30,28.90,-74.70,39.40,-67.80,105.00
80,553.00,JANET,1955.00,0.00,12.90,-59.20,18.00,-86.10,20.00,-96.30,150.00
81,555.00,KATIE,1955.00,0.00,14.30,-75.30,16.10,-72.90,17.10,-72.20,100.00
82,557.00,ANNA,1956.00,0.00,21.50,-96.70,21.90,-98.40,21.90,-98.40,70.00
83,558.00,BETSY,1956.00,0.00,14.10,-53.00,14.10,-53.00,39.50,-66.40,105.00
84,562.00,FLOSSY,1956.00,0.00,26.90,-91.00,29.50,-88.70,30.40,-86.40,80.00
85,563.00,GRETA,1956.00,1.00,23.30,-69.60,25.30,-61.00,31.90,-47.60,120.00
86,565.00,AUDREY,1957.00,0.00,22.00,-93.40,29.30,-93.80,29.30,-93.80,125.00
87,567.00,CARRIE,1957.00,0.00,14.50,-32.60,18.00,-45.70,44.00,-19.90,135.00
88,570.00,FRIEDA,1957.00,3.00,36.40,-65.20,36.40,-65.20,40.20,-59.70,70.00
89,574.00,CLEO,1958.00,0.00,12.00,-35.80,19.60,-49.80,46.60,-43.80,140.00
90,575.00,DAISY,1958.00,0.00,27.00,-76.00,31.50,-74.60,42.00,-65.00,110.00
91,576.00,ELLA,1958.00,0.00,16.30,-67.20,20.00,-76.30,20.60,-77.20,100.00
92,577.00,FIFI,1958.00,0.00,15.60,-55.70,17.50,-58.30,21.30,-63.40,80.00
93,579.00,HELENE,1958.00,0.00,26.70,-72.00,33.10,-78.20,49.00,-56.60,115.00
94,580.00,ILSA,1958.00,0.00,18.50,-57.10,21.40,-61.20,37.10,-54.90,115.00
95,581.00,JANICE,1958.00,0.00,27.20,-75.60,28.70,-74.70,43.30,-46.10,80.00
96,584.00,UNNAMED,1959.00,1.00,38.40,-65.30,41.20,-62.10,43.70,-60.60,70.00
97,585.00,CINDY,1959.00,3.00,32.30,-78.20,32.30,-78.20,32.40,-79.30,65.00
98,586.00,DEBRA,1959.00,3.00,28.30,-95.40,29.20,-95.10,29.60,-95.10,75.00
99,588.00,FLORA,1959.00,1.00,28.70,-41.30,28.70,-41.30,36.20,-30.70,65.00
100,589.00,GRACIE,1959.00,0.00,23.30,-73.00,30.50,-78.70,32.40,-80.40,120.00
101,590.00,HANNAH,1959.00,3.00,27.00,-54.90,29.60,-67.10,48.30,-17.60,110.00
102,592.00,JUDITH,1959.00,1.00,24.70,-84.00,30.90,-62.90,31.10,-57.30,70.00
103,594.00,ABBY,1960.00,0.00,13.80,-61.00,14.80,-66.00,16.50,-87.80,85.00
104,596.00,CLEO,1960.00,3.00,27.80,-71.80,37.70,-67.80,40.00,-66.80,80.00
105,597.00,DONNA,1960.00,0.00,12.20,-39.40,16.40,-58.00,43.10,-71.20,140.00
106,598.00,ETHEL,1960.00,3.00,25.60,-89.70,28.10,-88.90,29.10,-88.90,140.00
107,600.00,ANNA,1961.00,0.00,12.40,-65.70,13.70,-73.30,16.60,-88.30,100.00
108,601.00,BETSY,1961.00,0.00,15.90,-46.70,26.90,-52.90,50.80,-26.50,120.00
109,602.00,CARLA,1961.00,0.00,18.80,-85.10,27.20,-95.70,29.50,-97.20,150.00
110,603.00,DEBBIE,1961.00,0.00,15.20,-25.40,29.30,-45.90,55.70,-8.50,105.00
111,604.00,ESTHER,1961.00,0.00,16.80,-40.80,27.00,-68.60,40.90,-70.70,125.00
112,606.00,FRANCES,1961.00,0.00,24.30,-71.30,32.90,-66.30,42.20,-66.50,110.00
113,608.00,HATTIE,1961.00,0.00,12.80,-81.70,18.20,-85.20,17.20,-88.10,140.00
114,609.00,JENNY,1961.00,3.00,28.00,-51.00,28.30,-52.30,28.70,-52.50,70.00
115,611.00,ALMA,1962.00,1.00,35.20,-75.30,40.10,-70.40,41.50,-68.70,85.00
116,614.00,DAISY,1962.00,1.00,23.60,-66.30,28.00,-69.60,44.10,-64.80,95.00
117,615.00,ELLA,1962.00,3.00,28.10,-75.40,31.30,-73.60,39.50,-59.70,100.00
118,616.00,ARLENE,1963.00,0.00,13.30,-48.70,14.30,-49.90,44.80,-50.10,90.00
119,617.00,BEULAH,1963.00,0.00,17.90,-56.90,23.10,-59.60,49.40,-44.90,105.00
120,619.00,CINDY,1963.00,1.00,28.00,-93.90,28.00,-93.90,30.00,-94.60,70.00
121,620.00,DEBRA,1963.00,0.00,23.00,-48.90,23.00,-48.90,26.60,-48.20,65.00
122,621.00,EDITH,1963.00,0.00,13.20,-58.20,13.70,-59.60,19.50,-69.90,85.00
123,622.00,FLORA,1963.00,0.00,10.30,-56.00,15.90,-71.40,51.50,-41.00,125.00
124,623.00,GINNY,1963.00,3.00,33.50,-75.00,36.30,-70.30,49.00,-63.00,95.00
125,629.00,CLEO,1964.00,0.00,14.10,-51.30,16.70,-68.00,51.30,-48.80,135.00
126,630.00,DORA,1964.00,0.00,17.80,-56.50,26.10,-64.40,30.10,-83.50,115.00
127,631.00,ETHEL,1964.00,0.00,24.40,-54.30,27.70,-63.20,45.90,-30.70,100.00
128,633.00,GLADYS,1964.00,0.00,18.80,-52.10,25.00,-65.10,42.80,-64.20,125.00
129,634.00,HILDA,1964.00,0.00,23.40,-88.10,24.80,-91.10,29.60,-91.60,130.00
130,635.00,ISBELL,1964.00,1.00,21.70,-84.50,24.00,-82.90,33.40,-76.20,110.00
131,638.00,ANNA,1965.00,1.00,37.50,-51.60,41.10,-48.80,54.10,-12.60,80.00
132,639.00,BETSY,1965.00,1.00,21.20,-64.70,28.30,-89.20,30.80,-91.80,135.00
133,640.00,CAROL,1965.00,0.00,19.70,-40.60,38.70,-35.40,40.70,-19.70,85.00
134,642.00,ELENA,1965.00,1.00,27.30,-59.70,33.00,-56.30,43.50,-32.50,70.00
135,643.00,ALMA,1966.00,3.00,18.50,-84.10,24.20,-82.40,34.30,-73.50,110.00
136,644.00,BECKY,1966.00,3.00,37.60,-54.40,37.60,-54.40,39.50,-53.80,65.00
137,645.00,CELIA,1966.00,1.00,33.60,-67.90,33.60,-67.90,46.30,-59.90,70.00
138,646.00,DOROTHY,1966.00,3.00,33.00,-42.10,39.20,-40.10,42.40,-38.00,75.00
139,648.00,FAITH,1966.00,0.00,15.20,-39.80,23.30,-70.70,61.10,-6.00,110.00
140,651.00,INEZ,1966.00,0.00,15.80,-56.00,17.00,-67.10,22.80,-97.80,130.00
141,653.00,LOIS,1966.00,3.00,24.80,-49.80,24.80,-49.80,46.80,-22.10,70.00
142,654.00,ARLENE,1967.00,1.00,37.60,-55.80,43.30,-52.00,43.30,-52.00,75.00
143,655.00,BEULAH,1967.00,0.00,14.70,-62.90,24.20,-96.20,27.70,-98.40,140.00
144,656.00,CHLOE,1967.00,0.00,26.30,-39.40,27.90,-50.90,44.30,-18.10,95.00
145,657.00,DORIA,1967.00,3.00,30.50,-77.00,37.10,-64.90,37.80,-73.30,75.00
146,659.00,FERN,1967.00,3.00,22.60,-93.70,22.60,-93.70,22.60,-97.80,75.00
147,661.00,HEIDI,1967.00,1.00,30.80,-64.30,35.30,-46.90,39.30,-43.90,80.00
148,662.00,ABBY,1968.00,3.00,24.50,-83.60,24.50,-83.60,25.10,-83.30,65.00
149,663.00,BRENDA,1968.00,3.00,34.70,-68.40,34.70,-68.40,35.70,-56.60,65.00
150,665.00,DOLLY,1968.00,1.00,36.40,-66.60,39.80,-51.30,42.00,-34.00,70.00
151,667.00,SUBTROP1,1968.00,1.00,35.20,-52.60,37.60,-46.50,40.60,-43.10,70.00
152,669.00,GLADYS,1968.00,0.00,21.70,-83.50,31.30,-79.70,43.90,-62.90,75.00
153,671.00,BLANCHE,1969.00,1.00,35.50,-69.90,35.50,-69.90,44.30,-60.40,75.00
154,672.00,CAMILLE,1969.00,0.00,20.70,-83.80,28.30,-88.70,32.20,-90.00,165.00
155,673.00,DEBBIE,1969.00,0.00,15.50,-48.00,25.10,-63.30,53.00,-48.00,105.00
156,675.00,FRANCELIA,1969.00,0.00,17.30,-83.20,16.40,-86.70,16.10,-88.80,100.00
157,676.00,GERDA,1969.00,1.00,32.00,-78.00,37.80,-72.20,48.50,-66.00,110.00
158,677.00,HOLLY,1969.00,0.00,14.50,-49.50,14.50,-49.50,17.00,-53.10,75.00
159,678.00,INGA,1969.00,0.00,26.10,-64.70,31.90,-59.50,31.20,-51.20,100.00
160,679.00,UNNAMED,1969.00,3.00,37.00,-66.00,37.00,-66.00,44.50,-56.00,65.00
161,683.00,KARA,1969.00,3.00,32.20,-74.50,43.30,-50.80,46.10,-40.00,90.00
162,684.00,LAURIE,1969.00,3.00,24.30,-91.00,26.30,-89.60,24.70,-86.20,90.00
163,686.00,UNNAMED,1969.00,3.00,28.00,-38.00,28.00,-38.00,31.40,-35.00,65.00
164,687.00,MARTHA,1969.00,1.00,10.30,-81.00,10.30,-81.00,10.00,-81.00,80.00
165,688.00,ALMA,1970.00,1.00,16.80,-81.90,17.20,-81.60,17.20,-81.60,70.00
166,690.00,CELIA,1970.00,0.00,24.30,-87.20,27.50,-96.30,28.10,-97.80,110.00
167,693.00,ELLA,1970.00,1.00,23.00,-90.80,23.90,-97.90,24.00,-98.50,110.00
168,696.00,UNNAMED,1970.00,3.00,31.50,-66.00,39.00,-61.00,42.50,-57.50,90.00
169,697.00,UNNAMED,1970.00,3.00,37.00,-36.50,37.00,-36.50,37.80,-35.30,65.00
170,699.00,UNNAMED,1971.00,3.00,46.00,-49.00,46.00,-49.00,58.00,-43.00,75.00
171,700.00,BETH,1971.00,3.00,37.20,-69.90,39.70,-67.20,45.30,-61.50,75.00
172,703.00,EDITH,1971.00,0.00,13.20,-73.80,14.80,-83.20,29.50,-93.10,140.00
173,704.00,FERN,1971.00,1.00,26.40,-93.70,26.70,-94.00,28.50,-95.30,80.00
174,705.00,GINGER,1971.00,3.00,27.90,-63.30,33.30,-53.30,34.50,-76.50,95.00
175,707.00,IRENE,1971.00,0.00,11.40,-82.30,11.40,-82.30,11.40,-83.50,70.00
176,712.00,AGNES,1972.00,3.00,23.80,-85.60,26.00,-85.70,29.60,-85.60,75.00
177,713.00,BETTY,1972.00,3.00,38.80,-46.60,40.50,-42.60,40.90,-32.60,90.00
178,715.00,DAWN,1972.00,1.00,33.80,-70.40,35.20,-70.80,36.60,-73.50,70.00
179,718.00,ALICE,1973.00,1.00,30.60,-65.40,33.10,-65.10,40.30,-62.90,80.00
180,720.00,BRENDA,1973.00,0.00,19.80,-91.70,19.00,-92.10,19.00,-92.10,80.00
181,723.00,ELLEN,1973.00,1.00,26.90,-47.00,42.10,-45.20,48.60,-37.00,100.00
182,724.00,FRAN,1973.00,3.00,31.90,-55.20,36.80,-38.30,47.90,-6.50,70.00
183,730.00,BECKY,1974.00,1.00,33.70,-67.80,37.30,-61.80,43.00,-44.50,100.00
184,731.00,CARMEN,1974.00,0.00,17.00,-76.00,18.40,-86.80,30.00,-92.10,130.00
185,734.00,FIFI,1974.00,0.00,16.60,-80.20,16.30,-84.70,16.30,-88.20,95.00
186,735.00,GERTRUDE,1974.00,0.00,11.00,-53.00,11.00,-53.00,11.00,-56.60,65.00
187,738.00,BLANCHE,1975.00,1.00,35.90,-70.00,37.90,-68.00,41.20,-66.40,75.00
188,739.00,CAROLINE,1975.00,0.00,23.30,-94.20,24.00,-97.00,24.30,-97.80,100.00
189,740.00,DORIS,1975.00,3.00,34.90,-46.30,36.40,-44.50,42.00,-42.50,95.00
190,741.00,ELOISE,1975.00,0.00,19.50,-68.40,30.20,-86.30,30.20,-86.30,110.00
191,742.00,FAYE,1975.00,0.00,26.50,-60.00,32.70,-64.20,42.90,-40.00,90.00
192,743.00,GLADYS,1975.00,0.00,15.80,-44.00,35.30,-69.80,55.00,-40.00,120.00
193,748.00,BELLE,1976.00,1.00,26.60,-74.20,30.90,-75.30,38.80,-73.80,105.00
194,749.00,CANDICE,1976.00,3.00,41.20,-59.30,41.30,-56.40,49.90,-42.80,80.00
195,751.00,EMMY,1976.00,1.00,26.50,-62.10,35.00,-56.80,39.60,-25.80,90.00
196,752.00,FRANCES,1976.00,0.00,18.30,-51.60,26.30,-54.30,33.40,-35.60,100.00
197,754.00,GLORIA,1976.00,1.00,29.10,-59.80,33.10,-58.80,36.40,-51.70,90.00
198,755.00,HOLLY,1976.00,1.00,24.90,-58.10,24.90,-58.10,28.70,-56.70,65.00
199,756.00,ANITA,1977.00,1.00,26.50,-90.60,24.20,-97.10,23.10,-99.20,150.00
200,757.00,BABE,1977.00,1.00,28.70,-91.40,28.70,-91.40,29.50,-91.20,65.00
201,758.00,CLARA,1977.00,3.00,35.50,-67.70,35.50,-67.70,35.50,-64.60,65.00
202,759.00,DOROTHY,1977.00,1.00,35.50,-59.70,38.30,-57.00,42.00,-54.00,75.00
203,760.00,EVELYN,1977.00,1.00,39.20,-63.30,42.40,-61.50,47.40,-59.20,70.00
204,765.00,CORA,1978.00,0.00,14.00,-43.20,14.00,-44.90,13.20,-50.60,80.00
205,767.00,ELLA,1978.00,3.00,29.30,-68.80,40.00,-63.00,49.00,-45.00,120.00
206,768.00,FLOSSIE,1978.00,1.00,31.40,-44.00,31.80,-42.90,43.10,-35.90,85.00
207,769.00,GRETA,1978.00,0.00,14.00,-77.70,15.80,-84.30,17.00,-88.20,115.00
208,773.00,KENDRA,1978.00,1.00,26.20,-74.10,28.90,-72.60,29.30,-72.30,70.00
209,775.00,BOB,1979.00,1.00,26.20,-91.60,26.20,-91.60,29.10,-90.60,65.00
210,777.00,DAVID,1979.00,0.00,11.80,-48.50,16.60,-66.20,32.50,-81.10,150.00
211,779.00,FREDERIC,1979.00,0.00,12.90,-48.70,27.40,-87.00,32.20,-88.70,115.00
212,780.00,GLORIA,1979.00,1.00,24.40,-37.20,33.20,-47.80,43.40,-34.00,85.00
213,781.00,HENRI,1979.00,1.00,20.20,-94.00,20.40,-94.30,20.90,-95.00,75.00
214,783.00,ALLEN,1980.00,0.00,12.40,-51.40,21.80,-86.40,27.30,-99.00,165.00
215,784.00,BONNIE,1980.00,0.00,22.00,-38.70,23.70,-38.90,46.50,-38.40,85.00
216,785.00,CHARLEY,1980.00,3.00,39.60,-65.90,38.90,-66.70,38.00,-63.10,70.00
217,787.00,EARL,1980.00,0.00,30.40,-42.50,30.40,-42.50,45.20,-36.00,65.00
218,788.00,FRANCES,1980.00,0.00,13.00,-25.60,12.80,-29.80,45.70,-41.00,100.00
219,789.00,GEORGES,1980.00,1.00,40.20,-59.00,40.20,-59.00,48.00,-46.90,70.00
220,791.00,IVAN,1980.00,3.00,30.10,-30.50,28.10,-31.10,49.70,-27.50,90.00
221,792.00,JEANNE,1980.00,1.00,24.10,-87.00,24.10,-87.40,23.80,-89.80,85.00
222,793.00,KARL,1980.00,3.00,37.70,-44.70,37.00,-44.20,45.00,-32.00,75.00
223,797.00,DENNIS,1981.00,1.00,36.30,-73.00,37.10,-70.40,37.10,-70.40,70.00
224,798.00,EMILY,1981.00,3.00,34.60,-63.60,39.40,-59.90,42.30,-54.10,80.00
225,799.00,FLOYD,1981.00,0.00,21.70,-67.10,26.40,-69.10,31.40,-65.60,100.00
226,800.00,GERT,1981.00,0.00,24.80,-74.40,29.00,-72.00,34.10,-65.60,90.00
227,801.00,HARVEY,1981.00,0.00,20.20,-57.80,28.40,-62.60,37.50,-48.20,115.00
228,802.00,IRENE,1981.00,0.00,15.60,-50.10,25.80,-56.80,41.30,-36.10,105.00
229,804.00,KATRINA,1981.00,1.00,19.60,-80.80,20.00,-80.50,20.90,-79.50,75.00
230,806.00,ALBERTO,1982.00,1.00,24.00,-83.60,24.00,-83.60,24.80,-83.40,75.00
231,810.00,DEBBY,1982.00,1.00,25.60,-71.00,38.80,-62.30,50.80,-39.00,115.00
232,812.00,ALICIA,1983.00,3.00,27.40,-93.30,28.90,-95.00,29.70,-95.50,100.00
233,813.00,BARRY,1983.00,1.00,25.50,-96.40,25.40,-97.50,25.40,-97.50,70.00
234,814.00,CHANTAL,1983.00,3.00,32.80,-60.00,32.80,-60.00,34.40,-55.50,65.00
235,820.00,DIANA,1984.00,3.00,30.50,-80.00,33.90,-77.70,34.00,-78.30,115.00
236,824.00,HORTENSE,1984.00,3.00,29.70,-60.80,29.70,-60.80,30.20,-61.10,65.00
237,826.00,JOSEPHINE,1984.00,3.00,27.20,-72.40,31.40,-71.70,41.30,-56.60,90.00
238,827.00,KLAUS,1984.00,1.00,19.40,-64.00,19.90,-61.40,35.00,-55.00,80.00
239,828.00,LILI,1984.00,3.00,31.10,-52.40,31.10,-52.40,23.60,-57.10,70.00
240,830.00,BOB,1985.00,0.00,30.50,-80.50,30.50,-80.50,31.60,-80.50,65.00
241,831.00,CLAUDETTE,1985.00,3.00,35.20,-52.50,35.80,-40.00,36.40,-37.00,75.00
242,832.00,DANNY,1985.00,0.00,26.80,-91.50,28.90,-92.60,30.00,-92.70,80.00
243,833.00,ELENA,1985.00,0.00,25.00,-85.00,28.90,-84.80,30.20,-88.80,110.00
244,835.00,GLORIA,1985.00,0.00,17.70,-55.30,25.10,-70.90,41.90,-72.80,125.00
245,838.00,JUAN,1985.00,3.00,27.80,-91.20,29.40,-92.00,29.60,-91.30,75.00
246,839.00,KATE,1985.00,1.00,21.10,-65.30,25.20,-85.30,31.50,-83.50,105.00
247,841.00,BONNIE,1986.00,3.00,27.70,-92.20,29.00,-93.70,29.90,-94.30,75.00
248,842.00,CHARLEY,1986.00,3.00,34.40,-76.60,36.50,-75.80,37.40,-75.20,70.00
249,844.00,EARL,1986.00,1.00,25.00,-53.40,27.20,-55.40,41.00,-47.50,90.00
250,845.00,FRANCES,1986.00,1.00,27.00,-61.00,27.80,-59.60,29.70,-58.00,75.00
251,847.00,ARLENE,1987.00,3.00,36.50,-43.00,36.50,-43.00,48.50,-33.00,65.00
252,851.00,EMILY,1987.00,0.00,15.10,-66.30,16.70,-69.10,44.80,-42.50,110.00
253,852.00,FLOYD,1987.00,3.00,24.00,-82.90,24.00,-82.90,24.70,-81.50,65.00
254,856.00,DEBBY,1988.00,0.00,20.80,-96.60,20.80,-96.60,20.70,-97.30,65.00
255,859.00,FLORENCE,1988.00,3.00,27.40,-89.20,28.70,-89.30,28.70,-89.30,70.00
256,860.00,GILBERT,1988.00,0.00,15.90,-66.80,19.70,-83.80,24.40,-98.20,160.00
257,861.00,HELENE,1988.00,0.00,12.10,-38.80,15.30,-46.10,50.20,-34.50,125.00
258,863.00,JOAN,1988.00,0.00,11.80,-74.00,11.90,-83.20,12.00,-85.00,125.00
259,867.00,CHANTAL,1989.00,0.00,27.90,-92.80,28.70,-93.50,29.50,-94.30,70.00
260,868.00,DEAN,1989.00,0.00,17.30,-58.10,34.00,-64.90,44.10,-59.70,90.00
261,869.00,ERIN,1989.00,1.00,28.80,-44.50,34.10,-44.50,49.50,-33.50,90.00
262,870.00,FELIX,1989.00,1.00,36.00,-48.70,36.70,-48.30,38.00,-47.80,75.00
263,871.00,GABRIELLE,1989.00,0.00,11.50,-31.70,19.30,-55.70,39.10,-60.30,125.00
264,872.00,HUGO,1989.00,0.00,12.80,-43.50,14.60,-54.60,33.50,-80.30,140.00
265,874.00,JERRY,1989.00,0.00,28.10,-94.60,29.10,-95.00,29.10,-95.00,75.00
266,877.00,BERTHA,1990.00,3.00,30.20,-73.60,36.60,-67.00,44.20,-60.50,70.00
267,879.00,DIANA,1990.00,1.00,20.70,-94.70,20.90,-96.80,20.90,-96.80,85.00
268,882.00,GUSTAV,1990.00,0.00,14.50,-55.50,30.30,-57.50,42.10,-48.60,105.00
269,884.00,ISIDORE,1990.00,0.00,15.90,-36.80,18.50,-37.60,40.50,-48.50,85.00
270,885.00,JOSEPHINE,1990.00,1.00,30.00,-41.50,34.10,-38.40,38.90,-40.00,75.00
271,886.00,KLAUS,1990.00,0.00,17.20,-61.20,17.20,-61.20,17.70,-61.60,70.00
272,887.00,LILI,1990.00,3.00,31.20,-55.90,31.20,-55.90,33.20,-72.50,65.00
273,889.00,NANA,1990.00,3.00,22.80,-63.50,24.10,-63.80,28.90,-66.50,75.00
274,891.00,BOB,1991.00,3.00,29.00,-77.10,36.50,-74.50,41.40,-71.40,100.00
275,892.00,CLAUDETTE,1991.00,3.00,26.20,-58.80,27.20,-61.70,34.30,-57.40,115.00
276,896.00,GRACE,1991.00,3.00,31.60,-68.10,31.50,-63.20,32.50,-59.00,85.00
277,897.00,UNNAMED,1991.00,3.00,38.20,-66.50,38.20,-66.50,39.50,-65.70,65.00
278,899.00,ANDREW,1992.00,1.00,25.80,-68.30,25.40,-75.80,30.10,-91.70,135.00
279,900.00,BONNIE,1992.00,3.00,34.30,-58.10,37.50,-52.30,37.40,-51.40,95.00
280,901.00,CHARLEY,1992.00,3.00,34.70,-34.50,36.10,-33.80,36.60,-30.60,96.00
281,904.00,FRANCES,1992.00,3.00,28.70,-61.10,30.60,-58.80,37.70,-53.70,75.00
282,909.00,EMILY,1993.00,1.00,26.90,-61.70,34.50,-75.20,37.50,-57.70,100.00
283,910.00,FLOYD,1993.00,1.00,41.70,-58.30,48.00,-7.50,48.00,-5.00,70.00
284,911.00,GERT,1993.00,0.00,21.10,-95.00,21.30,-97.00,21.10,-98.30,85.00
285,912.00,HARVEY,1993.00,1.00,35.60,-55.20,35.60,-55.20,35.60,-55.20,65.00
286,915.00,CHRIS,1994.00,0.00,14.50,-46.80,17.00,-50.60,21.30,-55.60,70.00
287,918.00,FLORENCE,1994.00,3.00,28.10,-54.00,37.00,-49.90,44.20,-36.20,95.00
288,919.00,GORDON,1994.00,3.00,31.50,-74.80,33.10,-74.20,33.70,-75.70,75.00
289,920.00,ALLISON,1995.00,1.00,24.70,-86.20,24.70,-86.20,27.60,-86.10,65.00
290,924.00,ERIN,1995.00,0.00,23.60,-74.90,29.80,-86.60,30.60,-87.50,80.00
291,925.00,FELIX,1995.00,0.00,18.90,-52.40,24.30,-61.00,35.10,-67.50,120.00
292,927.00,HUMBERTO,1995.00,0.00,14.90,-38.30,15.70,-43.20,38.30,-39.00,95.00
293,928.00,IRIS,1995.00,0.00,15.00,-53.40,25.50,-58.80,48.90,-6.90,95.00
294,931.00,LUIS,1995.00,0.00,13.70,-37.00,17.40,-51.80,51.50,-48.50,120.00
295,932.00,MARILYN,1995.00,0.00,13.00,-57.70,19.70,-66.40,39.40,-60.60,100.00
296,933.00,NOEL,1995.00,0.00,15.20,-42.60,15.20,-42.60,32.40,-40.50,65.00
297,934.00,OPAL,1995.00,0.00,21.00,-92.30,27.30,-88.50,31.00,-86.80,130.00
298,936.00,ROXANNE,1995.00,0.00,19.20,-84.30,20.00,-87.00,20.60,-92.40,100.00
299,938.00,TANYA,1995.00,3.00,30.50,-54.90,33.80,-51.80,37.70,-37.90,75.00
300,940.00,BERTHA,1996.00,0.00,16.50,-58.40,20.30,-67.70,35.00,-77.60,100.00
301,941.00,CESAR,1996.00,0.00,11.60,-79.50,11.60,-79.50,12.30,-84.20,70.00
302,942.00,DOLLY,1996.00,0.00,19.20,-87.80,21.60,-97.70,21.60,-97.70,70.00
303,943.00,EDOUARD,1996.00,0.00,13.90,-38.30,15.40,-47.00,41.30,-67.30,125.00
304,944.00,FRAN,1996.00,0.00,16.40,-53.70,27.00,-74.70,35.20,-78.70,105.00
305,946.00,HORTENSE,1996.00,0.00,16.10,-64.50,25.90,-71.50,45.50,-61.50,120.00
306,947.00,ISIDORE,1996.00,0.00,11.70,-34.20,15.80,-42.90,22.60,-40.90,100.00
307,950.00,LILI,1996.00,1.00,19.60,-83.50,24.40,-74.00,40.50,-35.80,100.00
308,951.00,MARCO,1996.00,0.00,13.80,-78.50,13.80,-78.50,14.20,-77.80,65.00
309,954.00,BILL,1997.00,3.00,37.90,-61.10,37.90,-61.10,39.60,-58.40,65.00
310,956.00,DANNY,1997.00,3.00,29.20,-89.90,29.50,-89.40,30.40,-87.90,70.00
311,957.00,ERIKA,1997.00,0.00,15.20,-53.70,23.20,-62.50,37.10,-51.90,110.00
312,961.00,BONNIE,1998.00,0.00,21.10,-67.30,24.10,-71.50,36.70,-74.30,100.00
313,963.00,DANIELLE,1998.00,0.00,16.20,-43.30,18.40,-49.10,44.80,-48.50,90.00
314,964.00,EARL,1998.00,1.00,28.20,-89.00,28.70,-87.90,30.10,-85.70,85.00
315,966.00,GEORGES,1998.00,0.00,12.30,-40.00,16.00,-56.30,30.60,-88.90,135.00
316,968.00,IVAN,1998.00,1.00,29.60,-40.20,39.20,-36.30,40.70,-29.70,80.00
317,969.00,JEANNE,1998.00,0.00,13.10,-25.20,15.90,-33.40,36.20,-35.30,90.00
318,970.00,KARL,1998.00,3.00,30.40,-54.00,33.90,-47.30,39.10,-39.00,90.00
319,971.00,LISA,1998.00,1.00,41.60,-38.70,41.60,-38.70,47.10,-39.30,65.00
320,972.00,MITCH,1998.00,0.00,13.90,-77.80,16.90,-83.10,15.60,-85.70,155.00
321,973.00,NICOLE,1998.00,3.00,32.60,-42.60,35.10,-37.90,37.00,-35.50,75.00
322,975.00,BRET,1999.00,0.00,21.90,-94.50,25.50,-95.50,27.00,-97.90,125.00
323,976.00,CINDY,1999.00,0.00,14.20,-31.70,30.10,-58.00,37.00,-52.60,120.00
324,977.00,DENNIS,1999.00,0.00,23.80,-73.10,27.70,-77.30,35.10,-73.30,90.00
325,979.00,FLOYD,1999.00,0.00,19.30,-58.80,23.60,-70.00,35.70,-76.80,135.00
326,980.00,GERT,1999.00,0.00,15.90,-39.20,17.80,-50.80,40.30,-57.90,130.00
327,982.00,IRENE,1999.00,0.00,23.80,-82.20,34.80,-75.20,51.00,-45.00,95.00
328,983.00,JOSE,1999.00,0.00,14.90,-58.90,16.80,-61.10,32.20,-59.80,85.00
329,985.00,LENNY,1999.00,1.00,16.00,-78.60,17.40,-64.80,17.90,-62.80,135.00
330,1221.00,ALBERTO,2000.00,0.00,14.50,-33.20,35.90,-55.30,48.30,-39.50,110.00
331,1224.00,DEBBY,2000.00,0.00,15.40,-54.00,15.70,-56.30,19.50,-68.10,75.00
332,1226.00,FLORENCE,2000.00,3.00,30.10,-72.60,36.10,-61.80,36.10,-61.80,70.00
333,1227.00,GORDON,2000.00,1.00,25.20,-85.40,26.10,-84.90,28.00,-83.80,70.00
334,1229.00,ISAAC,2000.00,0.00,14.30,-33.20,26.60,-54.20,39.70,-47.90,120.00
335,1230.00,JOYCE,2000.00,0.00,12.40,-38.80,12.20,-42.50,10.50,-48.60,80.00
336,1231.00,KEITH,2000.00,0.00,17.90,-86.40,17.90,-87.20,22.60,-97.90,120.00
337,1233.00,MICHAEL,2000.00,3.00,30.10,-70.90,44.00,-58.50,51.00,-53.50,85.00
